[
  {"name": "Jurong East", "codes": ["NS1", "EW24"], "lines": ["NSL", "EWL"], "latitude": 1.33326, "longitude": 103.74223},
  {"name": "Bukit Batok", "codes": ["NS2"], "lines": ["NSL"], "latitude": 1.34924, "longitude": 103.74968},
  {"name": "Bukit Gombak", "codes": ["NS3"], "lines": ["NSL"], "latitude": 1.35883, "longitude": 103.75184},
  {"name": "Choa Chu Kang", "codes": ["NS4", "BP1"], "lines": ["NSL", "BPLRT"], "latitude": 1.38545, "longitude": 103.74432},
  {"name": "Yew Tee", "codes": ["NS5"], "lines": ["NSL"], "latitude": 1.39730, "longitude": 103.74749},
  {"name": "Kranji", "codes": ["NS7"], "lines": ["NSL"], "latitude": 1.42513, "longitude": 103.76199},
  {"name": "Marsiling", "codes": ["NS8"], "lines": ["NSL"], "latitude": 1.43266, "longitude": 103.77407},
  {"name": "Woodlands", "codes": ["NS9", "TE2"], "lines": ["NSL", "TEL"], "latitude": 1.43693, "longitude": 103.78648},
  {"name": "Admiralty", "codes": ["NS10"], "lines": ["NSL"], "latitude": 1.44060, "longitude": 103.80088},
  {"name": "Sembawang", "codes": ["NS11"], "lines": ["NSL"], "latitude": 1.44919, "longitude": 103.82004},
  {"name": "Canberra", "codes": ["NS12"], "lines": ["NSL"], "latitude": 1.44310, "longitude": 103.82978},
  {"name": "Yishun", "codes": ["NS13"], "lines": ["NSL"], "latitude": 1.42926, "longitude": 103.83521},
  {"name": "Khatib", "codes": ["NS14"], "lines": ["NSL"], "latitude": 1.41722, "longitude": 103.83297},
  {"name": "Yio Chu Kang", "codes": ["NS15"], "lines": ["NSL"], "latitude": 1.38196, "longitude": 103.84487},
  {"name": "Ang Mo Kio", "codes": ["NS16"], "lines": ["NSL"], "latitude": 1.36991, "longitude": 103.84953},
  {"name": "Bishan", "codes": ["NS17", "CC15"], "lines": ["NSL", "CCL"], "latitude": 1.35078, "longitude": 103.84843},
  {"name": "Braddell", "codes": ["NS18"], "lines": ["NSL"], "latitude": 1.34039, "longitude": 103.84701},
  {"name": "Toa Payoh", "codes": ["NS19"], "lines": ["NSL"], "latitude": 1.33257, "longitude": 103.84763},
  {"name": "Novena", "codes": ["NS20"], "lines": ["NSL"], "latitude": 1.32040, "longitude": 103.84395},
  {"name": "Newton", "codes": ["NS21", "DT11"], "lines": ["NSL", "DTL"], "latitude": 1.31293, "longitude": 103.83801},
  {"name": "Orchard", "codes": ["NS22", "TE14"], "lines": ["NSL", "TEL"], "latitude": 1.30405, "longitude": 103.83183},
  {"name": "Somerset", "codes": ["NS23"], "lines": ["NSL"], "latitude": 1.30040, "longitude": 103.83895},
  {"name": "Dhoby Ghaut", "codes": ["NS24", "NE6", "CC1"], "lines": ["NSL", "NEL", "CCL"], "latitude": 1.29849, "longitude": 103.84551},
  {"name": "City Hall", "codes": ["NS25", "EW13"], "lines": ["NSL", "EWL"], "latitude": 1.29324, "longitude": 103.85246},
  {"name": "Raffles Place", "codes": ["NS26", "EW14"], "lines": ["NSL", "EWL"], "latitude": 1.28386, "longitude": 103.85125},
  {"name": "Marina Bay", "codes": ["NS27", "CE2", "TE20"], "lines": ["NSL", "CCL", "TEL"], "latitude": 1.27606, "longitude": 103.85454},
  {"name": "Marina South Pier", "codes": ["NS28"], "lines": ["NSL"], "latitude": 1.27104, "longitude": 103.86317},
  {"name": "Pasir Ris", "codes": ["EW1"], "lines": ["EWL"], "latitude": 1.37281, "longitude": 103.94928},
  {"name": "Tampines", "codes": ["EW2", "DT32"], "lines": ["EWL", "DTL"], "latitude": 1.35431, "longitude": 103.94539},
  {"name": "Simei", "codes": ["EW3"], "lines": ["EWL"], "latitude": 1.34326, "longitude": 103.95341},
  {"name": "Tanah Merah", "codes": ["EW4"], "lines": ["EWL"], "latitude": 1.32748, "longitude": 103.94646},
  {"name": "Bedok", "codes": ["EW5"], "lines": ["EWL"], "latitude": 1.32400, "longitude": 103.93012},
  {"name": "Kembangan", "codes": ["EW6"], "lines": ["EWL"], "latitude": 1.32109, "longitude": 103.91291},
  {"name": "Eunos", "codes": ["EW7"], "lines": ["EWL"], "latitude": 1.31971, "longitude": 103.90311},
  {"name": "Paya Lebar", "codes": ["EW8", "CC9"], "lines": ["EWL", "CCL"], "latitude": 1.31819, "longitude": 103.89252},
  {"name": "Aljunied", "codes": ["EW9"], "lines": ["EWL"], "latitude": 1.31643, "longitude": 103.88297},
  {"name": "Kallang", "codes": ["EW10"], "lines": ["EWL"], "latitude": 1.31141, "longitude": 103.87130},
  {"name": "Lavender", "codes": ["EW11"], "lines": ["EWL"], "latitude": 1.30743, "longitude": 103.86302},
  {"name": "Bugis", "codes": ["EW12", "DT14"], "lines": ["EWL", "DTL"], "latitude": 1.30060, "longitude": 103.85605},
  {"name": "Tanjong Pagar", "codes": ["EW15"], "lines": ["EWL"], "latitude": 1.27641, "longitude": 103.84547},
  {"name": "Outram Park", "codes": ["NE3", "EW16", "TE17"], "lines": ["NEL", "EWL", "TEL"], "latitude": 1.28041, "longitude": 103.83931},
  {"name": "Tiong Bahru", "codes": ["EW17"], "lines": ["EWL"], "latitude": 1.28619, "longitude": 103.82672},
  {"name": "Redhill", "codes": ["EW18"], "lines": ["EWL"], "latitude": 1.28963, "longitude": 103.81686},
  {"name": "Queenstown", "codes": ["EW19"], "lines": ["EWL"], "latitude": 1.29470, "longitude": 103.80612},
  {"name": "Commonwealth", "codes": ["EW20"], "lines": ["EWL"], "latitude": 1.30240, "longitude": 103.79818},
  {"name": "Buona Vista", "codes": ["EW21", "CC22"], "lines": ["EWL", "CCL"], "latitude": 1.30740, "longitude": 103.79020},
  {"name": "Dover", "codes": ["EW22"], "lines": ["EWL"], "latitude": 1.31132, "longitude": 103.77867},
  {"name": "Clementi", "codes": ["EW23"], "lines": ["EWL"], "latitude": 1.31524, "longitude": 103.76509},
  {"name": "Chinese Garden", "codes": ["EW25"], "lines": ["EWL"], "latitude": 1.34253, "longitude": 103.73266},
  {"name": "Lakeside", "codes": ["EW26"], "lines": ["EWL"], "latitude": 1.34423, "longitude": 103.72090},
  {"name": "Boon Lay", "codes": ["EW27"], "lines": ["EWL"], "latitude": 1.33870, "longitude": 103.70599},
  {"name": "Pioneer", "codes": ["EW28"], "lines": ["EWL"], "latitude": 1.33751, "longitude": 103.69734},
  {"name": "Joo Koon", "codes": ["EW29"], "lines": ["EWL"], "latitude": 1.32781, "longitude": 103.67853},
  {"name": "Gul Circle", "codes": ["EW30"], "lines": ["EWL"], "latitude": 1.31944, "longitude": 103.66085},
  {"name": "Tuas Crescent", "codes": ["EW31"], "lines": ["EWL"], "latitude": 1.32111, "longitude": 103.64911},
  {"name": "Tuas West Road", "codes": ["EW32"], "lines": ["EWL"], "latitude": 1.33010, "longitude": 103.63989},
  {"name": "Tuas Link", "codes": ["EW33"], "lines": ["EWL"], "latitude": 1.34030, "longitude": 103.63702},
  {"name": "Expo", "codes": ["CG1", "DT35"], "lines": ["EWL", "DTL"], "latitude": 1.33541, "longitude": 103.96114},
  {"name": "Changi Airport", "codes": ["CG2"], "lines": ["EWL"], "latitude": 1.35734, "longitude": 103.98838},
  {"name": "Bras Basah", "codes": ["CC2"], "lines": ["CCL"], "latitude": 1.29684, "longitude": 103.85064},
  {"name": "Esplanade", "codes": ["CC3"], "lines": ["CCL"], "latitude": 1.29356, "longitude": 103.85557},
  {"name": "Promenade", "codes": ["CC4", "DT15"], "lines": ["CCL", "DTL"], "latitude": 1.29325, "longitude": 103.86140},
  {"name": "Nicoll Highway", "codes": ["CC5"], "lines": ["CCL"], "latitude": 1.29978, "longitude": 103.86371},
  {"name": "Stadium", "codes": ["CC6"], "lines": ["CCL"], "latitude": 1.30299, "longitude": 103.87498},
  {"name": "Mountbatten", "codes": ["CC7"], "lines": ["CCL"], "latitude": 1.30623, "longitude": 103.88234},
  {"name": "Dakota", "codes": ["CC8"], "lines": ["CCL"], "latitude": 1.30847, "longitude": 103.88832},
  {"name": "MacPherson", "codes": ["CC10", "DT26"], "lines": ["CCL", "DTL"], "latitude": 1.32657, "longitude": 103.88974},
  {"name": "Tai Seng", "codes": ["CC11"], "lines": ["CCL"], "latitude": 1.33559, "longitude": 103.88813},
  {"name": "Bartley", "codes": ["CC12"], "lines": ["CCL"], "latitude": 1.34242, "longitude": 103.87959},
  {"name": "Serangoon", "codes": ["CC13", "NE12"], "lines": ["CCL", "NEL"], "latitude": 1.34992, "longitude": 103.87342},
  {"name": "Lorong Chuan", "codes": ["CC14"], "lines": ["CCL"], "latitude": 1.35159, "longitude": 103.86442},
  {"name": "Marymount", "codes": ["CC16"], "lines": ["CCL"], "latitude": 1.34910, "longitude": 103.83948},
  {"name": "Caldecott", "codes": ["CC17", "TE9"], "lines": ["CCL", "TEL"], "latitude": 1.33761, "longitude": 103.83947},
  {"name": "Botanic Gardens", "codes": ["CC19", "DT9"], "lines": ["CCL", "DTL"], "latitude": 1.32253, "longitude": 103.81559},
  {"name": "Farrer Road", "codes": ["CC20"], "lines": ["CCL"], "latitude": 1.31738, "longitude": 103.80745},
  {"name": "Holland Village", "codes": ["CC21"], "lines": ["CCL"], "latitude": 1.31177, "longitude": 103.79589},
  {"name": "one-north", "codes": ["CC23"], "lines": ["CCL"], "latitude": 1.29988, "longitude": 103.78736},
  {"name": "Kent Ridge", "codes": ["CC24"], "lines": ["CCL"], "latitude": 1.29356, "longitude": 103.78445},
  {"name": "Haw Par Villa", "codes": ["CC25"], "lines": ["CCL"], "latitude": 1.28296, "longitude": 103.78200},
  {"name": "Pasir Panjang", "codes": ["CC26"], "lines": ["CCL"], "latitude": 1.27611, "longitude": 103.79146},
  {"name": "Labrador Park", "codes": ["CC27"], "lines": ["CCL"], "latitude": 1.27216, "longitude": 103.80273},
  {"name": "Telok Blangah", "codes": ["CC28"], "lines": ["CCL"], "latitude": 1.27060, "longitude": 103.80965},
  {"name": "HarbourFront", "codes": ["NE1", "CC29"], "lines": ["NEL", "CCL"], "latitude": 1.26531, "longitude": 103.82213},
  {"name": "Bayfront", "codes": ["CE1", "DT16"], "lines": ["CCL", "DTL"], "latitude": 1.28237, "longitude": 103.85907},
  {"name": "Chinatown", "codes": ["NE4", "DT19"], "lines": ["NEL", "DTL"], "latitude": 1.28461, "longitude": 103.84401},
  {"name": "Clarke Quay", "codes": ["NE5"], "lines": ["NEL"], "latitude": 1.28872, "longitude": 103.84664},
  {"name": "Little India", "codes": ["NE7", "DT12"], "lines": ["NEL", "DTL"], "latitude": 1.30653, "longitude": 103.84925},
  {"name": "Farrer Park", "codes": ["NE8"], "lines": ["NEL"], "latitude": 1.31243, "longitude": 103.85427},
  {"name": "Boon Keng", "codes": ["NE9"], "lines": ["NEL"], "latitude": 1.31924, "longitude": 103.86187},
  {"name": "Potong Pasir", "codes": ["NE10"], "lines": ["NEL"], "latitude": 1.33131, "longitude": 103.86930},
  {"name": "Woodleigh", "codes": ["NE11"], "lines": ["NEL"], "latitude": 1.33905, "longitude": 103.87062},
  {"name": "Kovan", "codes": ["NE13"], "lines": ["NEL"], "latitude": 1.36019, "longitude": 103.88495},
  {"name": "Hougang", "codes": ["NE14"], "lines": ["NEL"], "latitude": 1.37139, "longitude": 103.89230},
  {"name": "Buangkok", "codes": ["NE15"], "lines": ["NEL"], "latitude": 1.38293, "longitude": 103.89286},
  {"name": "Sengkang", "codes": ["NE16", "STC"], "lines": ["NEL", "SKLRT"], "latitude": 1.39169, "longitude": 103.89518},
  {"name": "Punggol", "codes": ["NE17", "PTC"], "lines": ["NEL", "PGLRT"], "latitude": 1.40512, "longitude": 103.90233},
  {"name": "Punggol Coast", "codes": ["NE18"], "lines": ["NEL"], "latitude": 1.41612, "longitude": 103.90565},
  {"name": "Bukit Panjang", "codes": ["DT1", "BP6"], "lines": ["DTL", "BPLRT"], "latitude": 1.37880, "longitude": 103.76366},
  {"name": "Cashew", "codes": ["DT2"], "lines": ["DTL"], "latitude": 1.36947, "longitude": 103.76487},
  {"name": "Hillview", "codes": ["DT3"], "lines": ["DTL"], "latitude": 1.36223, "longitude": 103.76716},
  {"name": "Hume", "codes": ["DT4"], "lines": ["DTL"], "latitude": 1.35397, "longitude": 103.77022},
  {"name": "Beauty World", "codes": ["DT5"], "lines": ["DTL"], "latitude": 1.34119, "longitude": 103.77567},
  {"name": "King Albert Park", "codes": ["DT6"], "lines": ["DTL"], "latitude": 1.33584, "longitude": 103.78383},
  {"name": "Sixth Avenue", "codes": ["DT7"], "lines": ["DTL"], "latitude": 1.33106, "longitude": 103.79691},
  {"name": "Tan Kah Kee", "codes": ["DT8"], "lines": ["DTL"], "latitude": 1.32608, "longitude": 103.80772},
  {"name": "Stevens", "codes": ["DT10", "TE11"], "lines": ["DTL", "TEL"], "latitude": 1.32000, "longitude": 103.82604},
  {"name": "Rochor", "codes": ["DT13"], "lines": ["DTL"], "latitude": 1.30372, "longitude": 103.85269},
  {"name": "Downtown", "codes": ["DT17"], "lines": ["DTL"], "latitude": 1.27927, "longitude": 103.85267},
  {"name": "Telok Ayer", "codes": ["DT18"], "lines": ["DTL"], "latitude": 1.28229, "longitude": 103.84834},
  {"name": "Fort Canning", "codes": ["DT20"], "lines": ["DTL"], "latitude": 1.29157, "longitude": 103.84435},
  {"name": "Bencoolen", "codes": ["DT21"], "lines": ["DTL"], "latitude": 1.29853, "longitude": 103.85009},
  {"name": "Jalan Besar", "codes": ["DT22"], "lines": ["DTL"], "latitude": 1.30524, "longitude": 103.85530},
  {"name": "Bendemeer", "codes": ["DT23"], "lines": ["DTL"], "latitude": 1.31381, "longitude": 103.86313},
  {"name": "Geylang Bahru", "codes": ["DT24"], "lines": ["DTL"], "latitude": 1.32131, "longitude": 103.87131},
  {"name": "Mattar", "codes": ["DT25"], "lines": ["DTL"], "latitude": 1.32685, "longitude": 103.88325},
  {"name": "Ubi", "codes": ["DT27"], "lines": ["DTL"], "latitude": 1.33005, "longitude": 103.89958},
  {"name": "Kaki Bukit", "codes": ["DT28"], "lines": ["DTL"], "latitude": 1.33591, "longitude": 103.90862},
  {"name": "Bedok North", "codes": ["DT29"], "lines": ["DTL"], "latitude": 1.33488, "longitude": 103.91859},
  {"name": "Bedok Reservoir", "codes": ["DT30"], "lines": ["DTL"], "latitude": 1.33642, "longitude": 103.93298},
  {"name": "Tampines West", "codes": ["DT31"], "lines": ["DTL"], "latitude": 1.34562, "longitude": 103.93833},
  {"name": "Tampines East", "codes": ["DT33"], "lines": ["DTL"], "latitude": 1.35647, "longitude": 103.95468},
  {"name": "Upper Changi", "codes": ["DT34"], "lines": ["DTL"], "latitude": 1.34158, "longitude": 103.96155},
  {"name": "Woodlands North", "codes": ["TE1"], "lines": ["TEL"], "latitude": 1.44842, "longitude": 103.78601},
  {"name": "Woodlands South", "codes": ["TE3"], "lines": ["TEL"], "latitude": 1.42737, "longitude": 103.79378},
  {"name": "Springleaf", "codes": ["TE4"], "lines": ["TEL"], "latitude": 1.39744, "longitude": 103.81782},
  {"name": "Lentor", "codes": ["TE5"], "lines": ["TEL"], "latitude": 1.38477, "longitude": 103.83548},
  {"name": "Mayflower", "codes": ["TE6"], "lines": ["TEL"], "latitude": 1.37342, "longitude": 103.83672},
  {"name": "Bright Hill", "codes": ["TE7"], "lines": ["TEL"], "latitude": 1.36221, "longitude": 103.83313},
  {"name": "Upper Thomson", "codes": ["TE8"], "lines": ["TEL"], "latitude": 1.35464, "longitude": 103.83476},
  {"name": "Napier", "codes": ["TE12"], "lines": ["TEL"], "latitude": 1.30795, "longitude": 103.82325},
  {"name": "Orchard Boulevard", "codes": ["TE13"], "lines": ["TEL"], "latitude": 1.30212, "longitude": 103.82606},
  {"name": "Great World", "codes": ["TE15"], "lines": ["TEL"], "latitude": 1.29375, "longitude": 103.83192},
  {"name": "Havelock", "codes": ["TE16"], "lines": ["TEL"], "latitude": 1.28829, "longitude": 103.83567},
  {"name": "Maxwell", "codes": ["TE18"], "lines": ["TEL"], "latitude": 1.28066, "longitude": 103.84428},
  {"name": "Shenton Way", "codes": ["TE19"], "lines": ["TEL"], "latitude": 1.27735, "longitude": 103.84715},
  {"name": "Gardens by the Bay", "codes": ["TE22"], "lines": ["TEL"], "latitude": 1.28105, "longitude": 103.86803},
  {"name": "Tanjong Rhu", "codes": ["TE23"], "lines": ["TEL"], "latitude": 1.29276, "longitude": 103.87522},
  {"name": "Katong Park", "codes": ["TE24"], "lines": ["TEL"], "latitude": 1.29965, "longitude": 103.88455},
  {"name": "Tanjong Katong", "codes": ["TE25"], "lines": ["TEL"], "latitude": 1.30455, "longitude": 103.90008},
  {"name": "Marine Parade", "codes": ["TE26"], "lines": ["TEL"], "latitude": 1.30295, "longitude": 103.90546},
  {"name": "Marine Terrace", "codes": ["TE27"], "lines": ["TEL"], "latitude": 1.30643, "longitude": 103.91770},
  {"name": "Siglap", "codes": ["TE28"], "lines": ["TEL"], "latitude": 1.31462, "longitude": 103.92830},
  {"name": "Bayshore", "codes": ["TE29"], "lines": ["TEL"], "latitude": 1.31468, "longitude": 103.94115},
  {"name": "South View", "codes": ["BP2"], "lines": ["BPLRT"], "latitude": 1.38061, "longitude": 103.74563},
  {"name": "Keat Hong", "codes": ["BP3"], "lines": ["BPLRT"], "latitude": 1.37880, "longitude": 103.74851},
  {"name": "Teck Whye", "codes": ["BP4"], "lines": ["BPLRT"], "latitude": 1.37657, "longitude": 103.75377},
  {"name": "Phoenix", "codes": ["BP5"], "lines": ["BPLRT"], "latitude": 1.37852, "longitude": 103.75799},
  {"name": "Petir", "codes": ["BP7"], "lines": ["BPLRT"], "latitude": 1.37806, "longitude": 103.76996},
  {"name": "Pending", "codes": ["BP8"], "lines": ["BPLRT"], "latitude": 1.37535, "longitude": 103.77317},
  {"name": "Bangkit", "codes": ["BP9"], "lines": ["BPLRT"], "latitude": 1.38296, "longitude": 103.77326},
  {"name": "Fajar", "codes": ["BP10"], "lines": ["BPLRT"], "latitude": 1.38434, "longitude": 103.77036},
  {"name": "Segar", "codes": ["BP11"], "lines": ["BPLRT"], "latitude": 1.38782, "longitude": 103.77020},
  {"name": "Jelapang", "codes": ["BP12"], "lines": ["BPLRT"], "latitude": 1.38683, "longitude": 103.76491},
  {"name": "Senja", "codes": ["BP13"], "lines": ["BPLRT"], "latitude": 1.38817, "longitude": 103.76237},
  {"name": "Compassvale", "codes": ["SE1"], "lines": ["SKLRT"], "latitude": 1.39406, "longitude": 103.90020},
  {"name": "Rumbia", "codes": ["SE2"], "lines": ["SKLRT"], "latitude": 1.39183, "longitude": 103.90611},
  {"name": "Bakau", "codes": ["SE3"], "lines": ["SKLRT"], "latitude": 1.38774, "longitude": 103.90517},
  {"name": "Kangkar", "codes": ["SE4"], "lines": ["SKLRT"], "latitude": 1.38383, "longitude": 103.90225},
  {"name": "Ranggung", "codes": ["SE5"], "lines": ["SKLRT"], "latitude": 1.38524, "longitude": 103.89730},
  {"name": "Cheng Lim", "codes": ["SW1"], "lines": ["SKLRT"], "latitude": 1.39637, "longitude": 103.89361},
  {"name": "Farmway", "codes": ["SW2"], "lines": ["SKLRT"], "latitude": 1.39734, "longitude": 103.88915},
  {"name": "Kupang", "codes": ["SW3"], "lines": ["SKLRT"], "latitude": 1.39825, "longitude": 103.88129},
  {"name": "Thanggam", "codes": ["SW4"], "lines": ["SKLRT"], "latitude": 1.39703, "longitude": 103.87623},
  {"name": "Fernvale", "codes": ["SW5"], "lines": ["SKLRT"], "latitude": 1.39191, "longitude": 103.87621},
  {"name": "Layar", "codes": ["SW6"], "lines": ["SKLRT"], "latitude": 1.38944, "longitude": 103.87999},
  {"name": "Tongkang", "codes": ["SW7"], "lines": ["SKLRT"], "latitude": 1.38942, "longitude": 103.88629},
  {"name": "Renjong", "codes": ["SW8"], "lines": ["SKLRT"], "latitude": 1.38942, "longitude": 103.89052},
  {"name": "Cove", "codes": ["PE1"], "lines": ["PGLRT"], "latitude": 1.39904, "longitude": 103.90598},
  {"name": "Meridian", "codes": ["PE2"], "lines": ["PGLRT"], "latitude": 1.39695, "longitude": 103.90912},
  {"name": "Coral Edge", "codes": ["PE3"], "lines": ["PGLRT"], "latitude": 1.39396, "longitude": 103.91263},
  {"name": "Riviera", "codes": ["PE4"], "lines": ["PGLRT"], "latitude": 1.39467, "longitude": 103.91629},
  {"name": "Kadaloor", "codes": ["PE5"], "lines": ["PGLRT"], "latitude": 1.39971, "longitude": 103.91619},
  {"name": "Oasis", "codes": ["PE6"], "lines": ["PGLRT"], "latitude": 1.40240, "longitude": 103.91256},
  {"name": "Damai", "codes": ["PE7"], "lines": ["PGLRT"], "latitude": 1.40521, "longitude": 103.90849},
  {"name": "Sam Kee", "codes": ["PW1"], "lines": ["PGLRT"], "latitude": 1.40770, "longitude": 103.90244},
  {"name": "Teck Lee", "codes": ["PW2"], "lines": ["PGLRT"], "latitude": 1.41275, "longitude": 103.90356},
  {"name": "Punggol Point", "codes": ["PW3"], "lines": ["PGLRT"], "latitude": 1.41703, "longitude": 103.90242},
  {"name": "Samudera", "codes": ["PW4"], "lines": ["PGLRT"], "latitude": 1.41541, "longitude": 103.90216},
  {"name": "Nibong", "codes": ["PW5"], "lines": ["PGLRT"], "latitude": 1.41156, "longitude": 103.89876},
  {"name": "Sumang", "codes": ["PW6"], "lines": ["PGLRT"], "latitude": 1.40833, "longitude": 103.89869},
  {"name": "Soo Teck", "codes": ["PW7"], "lines": ["PGLRT"], "latitude": 1.40566, "longitude": 103.90043}
]
